[
  {
    "name": "king fahad international airport",
    "lat": "26.4637863",
    "long": "49.7718537",
    "description": "King Fahd International Airport, also known as Dammam International Airport, is currently the largest airport in the world in terms of land area. The area of the airport situated in Saudi Arabia is 776 square km.",
    "links": "https://drive.google.com/uc?export=download&id=1Fh7WBQaxM4NNqdrKPG-fY1-8TXYJqBI7"
  },
  {
    "name": "denver international airport",
    "lat": "39.8433442",
    "long": "-104.7545833",
    "description": "Denver International Airport, locally known as DIA, opened in 1995. It is situated in Colorado, USA. It covers around 135.7 square km area which makes it the largest airport in North America and second largest in the world.",
    "links": "https://drive.google.com/uc?export=download&id=1zOxoEBXF0OBpKE11sxufB9BTlNQikoth"
  },
  {
    "name": "Dallas Fort Worth International Airport",
    "lat": "32.8998136",
    "long": "-97.0425239",
    "description": "Dallas Fort Worth International Airport, or DFW Airport, is the primary international airport serving the Dallas-Fort Worth area in the US state of Texas. It is 69.63 square km in size.",
    "links": "https://drive.google.com/uc?export=download&id=1Gl83ksNuAbpO709b_-vaX7g30366yF60"
  },
  {
    "name": "orlando international airport",
    "lat": "28.4179214",
    "long": "-81.3063338",
    "description": "Orlando International Airport is a major public airport in Florida, USA. It opened in 1981 and covers 69.63 square km area. In 2019, it handled 50,613,072 passengers, making it the busiest airport in the state and 10th busiest airport in the United States. Its former name was McCoy Air Force Base.",
    "links": "https://drive.google.com/uc?export=download&id=1BBneQmAdmfBF-3uKJxXDXrsHAryL6ejy"
  },
  {
    "name": "washington dulles international airport",
    "lat": "38.9531803",
    "long": "-77.4543476",
    "description": "Washington Dulles International Airport or just Dulles International Airport is situated in northern Virginia side of Washington DC in USA. The airport covers 52.6 square km area. Operations of the airport opened in 1962.",
    "links": "https://drive.google.com/uc?export=download&id=1OZmeD2SwAFUxiIgV2Qpl8Fv38QYTVZiJ"
  },
  {
    "name": "bejjing daxing  international airport",
    "lat": "39.5098091",
    "long": "116.4083182",
    "description": "Beijing Daxing International Airport is located on the border of the Chinese capital and Langfang, Hebei Province. It has been nicknamed \"The Starfish\". It began operations in 2019 and covers 47 square km area.",
    "links": "https://drive.google.com/uc?export=download&id=1M535w4D956kPPWmrP8CI8ntIbUPjUiyV"
  },
  {
    "name": "george bush intercontinental airport",
    "lat": "29.9642116",
    "long": "-95.3729419",
    "description": "Originally named Houston Intercontinental Airport, it was renamed after George HW Bush -- 41st President of the United States -- in 1997. Opening in 1969, it is located 23 miles north of downtown Houston, Texas in USA.",
    "links": "https://drive.google.com/uc?export=download&id=1K07zJrTFMDLiwjR_yfxKu0QVd3TuEfep"
  },
  {
    "name": "Shanghai Pudong International Airport",
    "lat": "31.1477171",
    "long": "121.8042311",
    "description": "Pudong is one of the two international airports in Shanghai, China. Opening in 1999, it covers 40 square km of area. Pudong Airport is a fast-growing hub for both passengers and cargo.",
    "links": "https://drive.google.com/uc?export=download&id=1qKTdAR6t4tdiO4jrzLrPRxv-2wdre3NG"
  },
  {
    "name": "cairo international airport",
    "lat": "30.1119049",
    "long": "31.3940659",
    "description": "Cairo International Airport is the principal airport of Egypt and the busiest in the North African country. It covers an approximate area of 37 square km. Opening in 1963, it is the second-busiest airport in Africa.",
    "links": "https://drive.google.com/uc?export=download&id=1CWrN4AsLNN24Z4j0pjeJhP0xv7Z7398D"
  },
  {
    "name": "Suvarnabhumi Airport",
    "lat": "13.694765",
    "long": "100.7227996",
    "description": "Suvarnabhumi Airport is also known unofficially as Bangkok Airport. It is one of the major airports of Thailand. It opened in 2006 and covers an area of approximately 32 square km. It is one of the biggest international airports in Southeast Asia and a regional hub for aviation.",
    "links": "https://drive.google.com/uc?export=download&id=18Yzzx3yHnX7SOX6kOYVodm95W2ENpCNR"
  }
]