[
  {
    "name": "LYSEVEGAN ROAD, NORWAY",
    "lat": "59.0553562",
    "long": "6.6619107",
    "description": "With grand fjord scenery and an intense stretch with 27 hairpin curves, the Lysevegan Road from Lysefjord to Sirdal in Norway is at the top of our bucket list.",
    "links": "https://drive.google.com/uc?export=download&id=1gcClXtUFZjUq-1iCQ4Qm6bHoWbjPPWzk"
  },
  {
    "name": "LEH-MANALI HIGHWAY, INDIA",
    "lat": "33.1168306",
    "long": "77.6320678",
    "description": "The infamous Leh-Manali Highway passes through the majestic Himalaya Mountain Range. Be aware this route is 298 miles long and goes through mountain passes that are so high, you can get altitude sickness! Tourists flock here in the summer when the weather is more forgiving.",
    "links": "https://drive.google.com/uc?export=download&id=16AggXzNBgqPbK7JQ_nJYuk-xLc7rTJ8K"
  },
  {
    "name": "PACIFIC COAST HIGHWAY, USA",
    "lat": "36.7544898",
    "long": "-121.7674875",
    "description": "This is one of the great all-American roads that winds down 128 miles of rugged California coastline transporting you across beaches and redwood forests with stunning views across the Pacific Ocean.",
    "links": "https://drive.google.com/uc?export=download&id=11Unizn2gnekszr3FkD3EoTr3t1i9J0Fl"
  },
  {
    "name": "AMALFI DRIVE, ITALY",
    "lat": "40.6270678",
    "long": "14.5813824",
    "description": "A drive along the Amalfi Coast in Italy will transport you through a heady mix of glamorous coastal towns, expansive views over the turquoise sea, plunging cliffs and pastel-colored hillside villages.",
    "links": "https://drive.google.com/uc?export=download&id=1XxQQRwD9QO2RVUjJRp3InntpeKd71Haz"
  },
  {
    "name": "TRANSFAGARASAN HIGHWAY, ROMANIA ",
    "lat": "45.4533757",
    "long": "24.622845",
    "description": "This highway takes you across the Fagaras Mountains, which at more than 6,500 feet (2,000 m) are some of the highest points in Romania. The road is 56 miles of steep vistas and hairpin bends; it’s a good route for a single day trip",
    "links": "https://drive.google.com/uc?export=download&id=1psKh_psef4aNdNsHVrfhRInAqllojkJj"
  },
  {
    "name": "ROUTE 1, ICELAND",
    "lat": "64.0589277",
    "long": "-21.5840392",
    "description": "This unique scenic road takes you in a circular route around Iceland, passing most of the island’s most iconic natural sights. At 824 miles, it is not a short day trip, but there are just too many extraordinary experiences along the way to rush!",
    "links": "https://drive.google.com/uc?export=download&id=19Melsqi1I5bDb7oJWYKtR5TVK9fYxQPn"
  },
  {
    "name": "Ruta 40 Argentina",
    "lat": "-37.131431",
    "long": "-69.7949078",
    "description": "Argentina’s Route 40 is one of the longest and most impressive scenic drives in the world, taking you 3,000 miles alongside the Andes Mountains.",
    "links": "https://drive.google.com/uc?export=download&id=17bwCdlAKQGRrl2o8A1Zh-LEu8A9xFE-k"
  },
  {
    "name": "KARAKORAM HIGHWAY, PAKISTAN",
    "lat": "35.4202137",
    "long": "74.0422287",
    "description": "This route crosses the Kunjerab Pass at a whopping 15,748 feet (4,800 m) above sea level, connecting Pakistan to China. A famous part of the Silk Road, the highway was once precarious for travelers but has now been modernized with a new roadway.",
    "links": "https://drive.google.com/uc?export=download&id=1EYJ-QBYnreY_XjKdLEfhlraQ9Kws-kXA"
  },
  {
    "name": "MILFORD ROAD, NEW ZEALAND",
    "lat": "-45.5730046",
    "long": "168.1061593",
    "description": "The Milford Road is part of New Zealand‘s State Highway 94 and transports you to one of the country’s most beloved areas of natural beauty: Milford Sound. At around 80 miles the Milford Road route is an easy drive that takes you through the Fiordland",
    "links": "https://drive.google.com/uc?export=download&id=1fpeuL3MNsU0C3vkkpvQp9ewPIBEwwpom"
  },
  {
    "name": "CHAPMAN’S PEAK DRIVE, SOUTH AFRICA",
    "lat": "-34.0883147",
    "long": "18.3506896",
    "description": "This extraordinary trip takes you on a circular route around South Africa’s breathtaking southern peninsula. Start at Hout Bay south of Cape Town, climb to Chapman’s Peak and finish in Noordhoek.",
    "links": "https://drive.google.com/uc?export=download&id=1oEvDrw8k7DN0TNjgi1TOi2WWNSnXM-A6"
  }
]
