[
{
"name": "walt diseny world resort",
"lat": "28.3771904",
"long": "-81.5729287",
"description": "There’s a reason why they call Orlando Florida’s Disney resort a “world”. The mega-resort Walt Disney World features four marvelous parks to lose yourself in the wonderful world of Disney.",
"links": "https://drive.google.com/file/d/1C8U7Pzij2yjc3vcI-_PoNKlxfeJZPRda/view?usp=sharing"
},
{
"name": "europa park",
"lat": "48.266023",
"long": "7.7198189",
"description": "The largest theme park in Germany, Europa Park is located in Rust. Attractions include Pirates in Batavia, which is an electrifying underground boat ride experience.",
"links": "https://drive.google.com/file/d/18H7I48tJ7e_uGgMn9gwVGyF6Xb9l6Lui/view?usp=sharing"
},
{
"name": "disneyland paris",
"lat": "48.8673893",
"long": "2.7814043",
"description": "On the outskirts of Paris is where you will find the European version of Disneyland, one of the best theme parks in the world. There are two parks to explore: Disneyland Park and Walt Disney Studios Park.",
"links": "https://drive.google.com/file/d/1NsUHiZaklKOBvnZam8U-pV90_bfj6u3F/view?usp=sharing"
},
{
"name": "universal orlando resort",
"lat": "28.4743254",
"long": "-81.470008",
"description": "One of the world’s most famous theme parks, the three parks at  Universal Orlando Resort sees more than 10 million visitors per year.",
"links": "https://drive.google.com/file/d/1ImRSaNvSZWfhs2ZU3hAugMZIcYlflDya/view?usp=sharing"
},
{
"name": "tivoli gardens",
"lat": "55.6736871",
"long": "12.5659584",
"description": "Old meets new at Tivoli Gardens in Copenhagen, an amusement park that first opened in 1843. It sits right in the center of the city and has a range of rides, games, musicals, gardens and major concerts.",
"links": "https://drive.google.com/file/d/16IArdNDSLgbdjb367iea329e-6yR4fCe/view?usp=sharing"
},
{
"name": "universal studio hollywood",
"lat": "34.1381212",
"long": "-118.355567",
"description": "Head to La-La Land for Universal Studios Hollywood, a movie-themed amusement park with thrilling rides. Top attractions include Fast & Furious Supercharged and Harry Potter and The Forbidden Journey.",
"links": "https://drive.google.com/file/d/1F5atlTGiauvg006nxPzto0iiruQW2XXt/view?usp=sharing"
},
{
"name": "cedar point",
"lat": "41.482211",
"long": "-82.6857093",
"description": "Opened in the late 1800s, Cedar Point is one of the older US theme parks. Located in Ohio, it spans 364 acres and is known as the roller coaster capital of the world.",
"links": "https://drive.google.com/file/d/1iJ8N8cntYC5z4C_M81yqrCiHdYvMJkdx/view?usp=sharing"
},
{
"name": "universal studio japan",
"lat": "34.665442",
"long": "135.4301495",
"description": "There’s world-class entertainment on offer at Universal Studios Japan, where you can enjoy great rides like Flight of the Hippogriff. The Tokyo-based theme park also features Spider-Man and Jurassic Park-themed attractions.",
"links": "https://drive.google.com/file/d/1W4p2xSS8Isqw97pG9N3mHYy9l2gDVD4Z/view?usp=sharing"
},
{
"name": "efteling",
"lat": "51.6493429",
"long": "5.0382703",
"description": "In Kaatsheuvel, you’ll find Efteling, Holland’s largest theme park which is also known as The World of Wonders. Attractions include adrenaline-pumping rollercoasters and spectacular park shows.",
"links": "https://drive.google.com/file/d/1X80hY4rLm1QFgDOOGzGRvqQyoxaQCECH/view?usp=sharing"
},
{
"name": "seaworld orlando",
"lat": "28.4112839",
"long": "-81.4633873",
"description": "Embrace the aquatic life at SeaWorld Orlando with loads of exciting attractions. From rollercoasters to infinity falls, you’ll be sure to make a splash at SeaWorld Orlando.",
"links": "https://drive.google.com/file/d/1GdVkzPogGrnEFBKo8VmbfzE2ARSCc-79/view?usp=sharing"
},
{
"name": "ocean park hongkong",
"lat": "22.2394013",
"long": "114.1629856",
"description": "Seek out thrills at Ocean Park and Ride the Arctic Blast or experience the Wild Twister and much more at one of Hong Kong’s favorite theme parks.",
"links": "https://drive.google.com/file/d/1f-qEROfKrU2nMwytkpSkvYF0TSJ8_fe1/view?usp=sharing"
},
{
"name": "lotte world",
"lat": "37.5111158",
"long": "127.0959783",
"description": "You will find the world’s largest indoor theme parks at Lotte World in Seoul, South Korea. There’s also an outdoor amusement park called Magic Island and an artificial island to explore.",
"links": "https://drive.google.com/file/d/1p5LwM_qsxCay8y4YVKtBihfGByBVi1nj/view?usp=sharing"
},
{
"name": "ferrari world",
"lat": "24.4835529",
"long": "54.6029024",
"description": "Put the pedal to the metal at Ferrari World in Abu Dhabi. Find out what it’s like to be a Scuderia Ferrari driver with thrilling rides and roller coasters. Get ready for the G-Force!",
"links": "https://drive.google.com/file/d/1hBoHObtLlgAVc7Tk74xShE7znlrJs3al/view?usp=sharing"
}
]